,City,Country,Temp,Humidity,Cloud %,Windspeed,Lat,Long,Time
0,obihiro,JP,-5.0,57,20,5.1,42.92,143.2,2019-12-28 07:30:47
1,coquimbo,CL,14.0,87,84,0.5,-29.95,-71.34,2019-12-28 07:30:48
2,kahului,US,21.53,83,20,4.6,20.89,-156.47,2019-12-28 07:30:48
3,busselton,AU,29.11,31,0,7.89,-33.64,115.35,2019-12-28 07:30:48
4,butaritari,KI,28.97,77,100,5.96,3.07,172.79,2019-12-28 07:30:48
5,senneterre,CA,-1.0,80,40,4.1,48.39,-77.24,2019-12-28 07:30:49
6,ramanuj ganj,IN,18.85,22,0,2.82,23.81,83.7,2019-12-28 07:30:49
7,nanortalik,GL,-0.53,78,100,1.77,60.14,-45.24,2019-12-28 07:30:49
8,pochutla,MX,21.67,92,14,3.37,15.74,-96.47,2019-12-28 07:30:49
9,saldanha,PT,4.6,59,0,1.22,41.42,-6.55,2019-12-28 07:30:49
10,clyde river,CA,-21.0,83,1,4.1,70.47,-68.59,2019-12-28 07:30:50
11,mehamn,NO,-7.34,75,100,8.71,71.03,27.85,2019-12-28 07:30:50
12,airai,TL,23.36,90,100,1.35,-8.93,125.41,2019-12-28 07:30:50
13,great falls,US,-3.37,68,75,2.6,47.5,-111.29,2019-12-28 07:30:50
14,rikitea,PF,24.61,89,100,4.76,-23.12,-134.97,2019-12-28 07:30:51
15,ushuaia,AR,2.09,93,0,1.73,-54.81,-68.31,2019-12-28 07:30:51
16,boromo,BF,26.04,13,0,3.34,11.74,-2.93,2019-12-28 07:30:51
17,tougue,GN,24.35,20,0,1.06,11.45,-11.68,2019-12-28 07:30:51
18,kodiak,US,4.58,75,90,3.6,39.95,-94.76,2019-12-28 07:30:52
19,lagoa,PT,11.97,87,0,3.1,37.14,-8.45,2019-12-28 07:30:52
20,hithadhoo,MV,27.87,80,90,5.0,-0.6,73.08,2019-12-28 07:30:52
21,kapaa,US,22.71,83,90,9.8,22.08,-159.32,2019-12-28 07:30:52
22,cape town,ZA,21.52,52,0,7.2,-33.93,18.42,2019-12-28 07:30:39
23,alofi,NU,25.0,78,75,2.6,-19.06,-169.92,2019-12-28 07:30:53
24,honningsvag,NO,-3.8,84,100,16.56,70.98,25.97,2019-12-28 07:30:53
25,saint george,GR,5.18,56,40,3.1,39.45,22.34,2019-12-28 07:30:53
26,pierre,US,0.38,98,90,2.6,44.37,-100.35,2019-12-28 07:30:53
27,amparafaravola,MG,28.6,53,56,3.75,-17.68,48.22,2019-12-28 07:30:54
28,presidente epitacio,BR,22.13,82,100,3.3,-21.76,-52.12,2019-12-28 07:30:54
29,turan,RU,-28.72,95,10,0.41,52.15,93.92,2019-12-28 07:30:55
30,vaini,IN,28.0,54,40,4.1,15.34,74.49,2019-12-28 07:30:55
31,dicabisagan,PH,25.73,83,0,2.21,17.08,122.42,2019-12-28 07:30:55
32,ajdabiya,LY,17.0,65,100,5.0,30.75,20.22,2019-12-28 07:30:55
33,hami,CN,-3.97,50,0,1.93,42.84,93.51,2019-12-28 07:30:55
34,narsaq,GL,-3.0,53,100,2.1,60.91,-46.05,2019-12-28 07:30:56
35,bosobolo,CD,32.0,17,62,2.74,4.19,19.88,2019-12-28 07:30:56
36,calabozo,VE,25.19,78,99,2.85,8.92,-67.43,2019-12-28 07:30:56
37,lorengau,PG,26.83,84,97,8.19,-2.02,147.27,2019-12-28 07:30:56
38,sitka,US,11.21,95,100,7.55,37.17,-99.65,2019-12-28 07:30:57
39,kysyl-syr,RU,-39.52,96,47,1.23,63.9,122.77,2019-12-28 07:30:57
40,dikson,RU,-22.76,97,89,1.77,73.51,80.55,2019-12-28 07:30:57
41,douglas,US,4.0,86,90,8.2,58.28,-134.39,2019-12-28 07:30:57
42,hofn,IS,7.93,84,100,10.3,64.25,-15.21,2019-12-28 07:30:57
43,punta arenas,CL,6.82,81,20,6.2,-53.16,-70.91,2019-12-28 07:30:58
44,monrovia,LR,24.0,94,40,2.1,6.33,-10.8,2019-12-28 07:30:58
45,ribeira grande,PT,14.45,87,100,5.87,38.52,-28.7,2019-12-28 07:30:58
46,hovd,NO,1.4,74,75,5.1,63.83,10.7,2019-12-28 07:30:58
47,lebu,ET,18.0,45,40,3.1,8.96,38.73,2019-12-28 07:30:59
48,norman wells,CA,-32.0,74,75,1.5,65.28,-126.83,2019-12-28 07:30:59
49,port alfred,ZA,21.67,67,76,2.68,-33.59,26.89,2019-12-28 07:30:29
50,yellowknife,CA,-25.1,75,20,2.6,62.45,-114.38,2019-12-28 07:30:59
51,yate,GB,7.41,93,40,3.1,51.54,-2.41,2019-12-28 07:30:59
52,tasiilaq,GL,-1.0,63,100,15.4,65.61,-37.64,2019-12-28 07:31:00
53,abha,SA,17.04,55,0,3.6,18.22,42.5,2019-12-28 07:31:00
54,mataura,NZ,11.67,72,99,7.6,-46.19,168.86,2019-12-28 07:31:00
55,hermanus,ZA,22.03,61,0,7.6,-34.42,19.24,2019-12-28 07:31:01
56,clonakilty,IE,9.57,93,75,5.7,51.62,-8.87,2019-12-28 07:31:01
57,jiwani,PK,21.34,60,0,2.23,25.05,61.74,2019-12-28 07:31:01
58,puerto ayora,EC,23.33,88,48,1.34,-0.74,-90.35,2019-12-28 07:31:02
59,awjilah,LY,17.78,52,2,5.64,29.14,21.3,2019-12-28 07:31:02
60,jamestown,AU,31.46,25,7,9.01,-33.21,138.6,2019-12-28 07:31:02
61,chokurdakh,RU,-35.38,91,100,2.72,70.62,147.9,2019-12-28 07:31:02
62,hilo,US,21.31,88,90,3.6,19.71,-155.08,2019-12-28 07:27:10
63,saint-philippe,CA,2.44,74,90,7.2,45.36,-73.48,2019-12-28 07:31:03
64,auki,NG,22.64,13,0,8.59,12.18,6.51,2019-12-28 07:31:03
65,qaanaaq,GL,-18.83,47,65,3.37,77.48,-69.36,2019-12-28 07:31:03
66,castro,CL,7.0,93,0,3.1,-42.48,-73.76,2019-12-28 07:31:04
67,ilulissat,GL,-14.0,60,100,1.0,69.22,-51.1,2019-12-28 07:31:04
68,saint-pierre,FR,6.06,93,90,3.1,48.95,4.24,2019-12-28 07:31:04
69,laguna,BZ,18.89,99,43,0.71,16.17,-88.94,2019-12-28 07:31:04
70,neiafu,TO,27.0,65,75,5.7,-18.65,-173.98,2019-12-28 07:31:05
71,tiksi,RU,-32.29,89,100,4.04,71.64,128.87,2019-12-28 07:31:05
72,ambilobe,MG,30.17,66,82,2.64,-13.19,49.05,2019-12-28 07:31:05
73,saskylakh,RU,-33.52,96,97,2.03,71.97,114.09,2019-12-28 07:31:05
74,esperance,AU,28.0,42,0,8.7,-33.86,121.89,2019-12-28 07:31:05
75,mount gambier,AU,29.0,37,0,6.7,-37.83,140.78,2019-12-28 07:31:06
76,bethel,US,-27.24,68,1,11.3,60.79,-161.76,2019-12-28 07:31:06
77,atuona,PF,27.23,74,1,5.53,-9.8,-139.03,2019-12-28 07:31:06
78,juneau,US,4.0,86,90,8.2,58.3,-134.42,2019-12-28 07:26:18
79,champerico,MX,15.0,87,40,2.1,16.38,-93.6,2019-12-28 07:31:07
80,mnogovershinnyy,RU,-22.03,76,97,3.3,53.94,139.92,2019-12-28 07:31:07
81,cabo san lucas,MX,17.47,77,40,1.92,22.89,-109.91,2019-12-28 07:30:07
82,avarua,CK,24.0,69,24,2.1,-21.21,-159.78,2019-12-28 07:28:04
83,wawa,NG,26.14,18,0,2.2,9.9,4.41,2019-12-28 07:31:07
84,hobart,AU,23.95,53,20,7.2,-42.88,147.33,2019-12-28 07:29:03
85,east london,ZA,17.0,88,75,3.1,-33.02,27.91,2019-12-28 07:31:08
86,luderitz,NA,20.0,60,57,7.2,-26.65,15.16,2019-12-28 07:31:08
87,oranjestad,AW,27.0,83,40,8.2,12.52,-70.03,2019-12-28 07:31:08
88,raudeberg,NO,6.8,75,100,9.8,61.99,5.14,2019-12-28 07:31:09
89,salalah,OM,25.0,61,75,7.2,17.01,54.1,2019-12-28 07:31:09
90,nikolskoye,RU,-1.08,68,90,6.0,59.7,30.79,2019-12-28 07:31:09
91,georgetown,GY,25.0,94,20,1.0,6.8,-58.16,2019-12-28 07:31:09
92,orlik,PL,0.15,80,75,4.6,53.95,17.74,2019-12-28 07:31:10
93,kuusamo,FI,-24.0,83,64,0.5,65.96,29.19,2019-12-28 07:31:10
94,villa carlos paz,AR,27.05,69,93,2.6,-31.42,-64.5,2019-12-28 07:31:10
95,moerai,PF,23.13,68,0,2.88,-22.43,-151.33,2019-12-28 07:31:10
96,vagay,RU,-15.68,89,100,2.89,57.94,69.02,2019-12-28 07:31:11
97,porto novo,BR,21.0,83,40,2.1,-23.68,-45.44,2019-12-28 07:29:20
98,albany,US,3.69,70,90,4.1,42.65,-73.75,2019-12-28 07:27:20
99,samarai,PG,25.6,81,30,2.12,-10.62,150.67,2019-12-28 07:31:11
100,constitucion,MX,12.13,58,40,3.6,23.99,-104.67,2019-12-28 07:31:12
101,gazanjyk,TM,14.01,40,100,3.4,39.24,55.52,2019-12-28 07:31:12
102,aksum,ET,23.46,23,0,2.82,14.12,38.72,2019-12-28 07:31:12
103,iqaluit,CA,-18.0,70,90,4.6,63.75,-68.52,2019-12-28 07:31:13
104,mitsamiouli,KM,25.0,94,75,4.6,-11.38,43.28,2019-12-28 07:31:13
105,beyla,GN,27.23,32,0,0.31,8.69,-8.65,2019-12-28 07:31:13
106,tual,ID,29.24,78,91,6.51,-5.67,132.75,2019-12-28 07:31:13
107,port lincoln,AU,23.63,46,0,5.59,-34.72,135.86,2019-12-28 07:31:14
108,mikhaylovka,RU,-29.27,94,100,2.84,52.96,103.29,2019-12-28 07:31:14
109,dunedin,NZ,12.78,56,98,6.26,-45.87,170.5,2019-12-28 07:30:35
110,fort nelson,CA,-23.0,76,75,1.0,58.81,-122.69,2019-12-28 07:31:14
111,gunupur,IN,22.93,67,86,1.2,19.07,83.81,2019-12-28 07:31:14
112,isangel,VU,29.0,79,75,7.7,-19.55,169.27,2019-12-28 07:31:15
113,rocha,UY,21.87,75,100,4.47,-34.48,-54.34,2019-12-28 07:31:15
114,victoria,BN,30.0,70,75,4.1,5.28,115.24,2019-12-28 07:29:05
115,rio gallegos,AR,6.0,75,0,4.6,-51.62,-69.22,2019-12-28 07:31:15
116,escanaba,US,-6.17,92,1,5.5,45.75,-87.06,2019-12-28 07:31:16
117,carmen,PH,33.0,63,40,4.1,7.36,125.71,2019-12-28 07:31:16
118,nyurba,RU,-39.44,96,32,1.87,63.29,118.35,2019-12-28 07:31:16
119,kruisfontein,ZA,21.86,47,75,6.7,-34.0,24.73,2019-12-28 07:31:16
120,shelomi,IL,11.88,93,75,2.6,33.07,35.15,2019-12-28 07:31:17
121,eydhafushi,MV,27.7,78,0,6.99,5.1,73.07,2019-12-28 07:31:17
122,tuktoyaktuk,CA,-33.0,67,20,4.6,69.44,-133.03,2019-12-28 07:31:17
123,port elizabeth,US,6.49,93,1,2.1,39.31,-74.98,2019-12-28 07:31:17
124,christiana,ZA,32.8,23,63,7.14,-27.91,25.16,2019-12-28 07:31:17
125,bluff,AU,26.69,56,100,8.06,-23.58,149.07,2019-12-28 07:31:18
126,arkhangelskoye,RU,-2.05,69,100,4.15,54.46,37.62,2019-12-28 07:31:18
127,glens falls,US,3.38,80,90,3.6,43.31,-73.64,2019-12-28 07:28:34
128,fajardo,CU,18.94,100,20,1.5,22.83,-82.45,2019-12-28 07:31:19
129,beringovskiy,RU,-25.82,91,20,8.74,63.05,179.32,2019-12-28 07:31:19
130,san policarpo,PH,27.04,75,0,4.42,12.18,125.51,2019-12-28 07:31:19
131,biloela,AU,24.33,63,100,5.8,-24.4,150.51,2019-12-28 07:31:19
132,cayenne,GF,26.0,88,100,1.5,4.94,-52.33,2019-12-28 07:31:19
133,geraldton,CA,-7.0,85,5,4.1,49.72,-86.95,2019-12-28 07:31:20
134,khonsa,IN,15.41,68,1,1.3,26.99,95.51,2019-12-28 07:31:20
135,turukhansk,RU,-24.63,96,100,7.43,65.8,87.96,2019-12-28 07:31:20
136,eganville,CA,1.5,74,90,1.5,45.54,-77.1,2019-12-28 07:31:20
137,leningradskiy,RU,-26.49,96,38,3.89,69.38,178.42,2019-12-28 07:31:21
138,saint anthony,US,-13.06,85,90,2.6,43.97,-111.68,2019-12-28 07:31:21
139,vernon,CA,0.0,94,90,2.1,50.27,-119.27,2019-12-28 07:26:58
140,mandalgovi,MN,-19.35,87,100,8.87,45.76,106.27,2019-12-28 07:31:21
141,la baneza,ES,1.21,50,0,2.6,42.3,-5.9,2019-12-28 07:31:21
142,dodge city,US,1.41,93,90,8.05,37.75,-100.02,2019-12-28 07:31:22
143,pangai,TO,27.0,74,75,6.2,-19.8,-174.35,2019-12-28 07:31:22
144,kudahuvadhoo,MV,27.73,76,0,6.63,2.67,72.89,2019-12-28 07:31:22
145,thompson,CA,-13.0,84,90,1.5,55.74,-97.86,2019-12-28 07:28:35
146,bilma,NE,19.38,19,0,1.92,18.69,12.92,2019-12-28 07:31:22
147,katsuura,JP,9.92,66,20,6.2,33.93,134.5,2019-12-28 07:31:23
148,katete,UG,20.9,80,100,2.12,-0.78,29.75,2019-12-28 07:31:23
149,mahebourg,MU,28.27,74,40,6.7,-20.41,57.7,2019-12-28 07:27:27
150,cherskiy,RU,-29.4,89,0,4.62,68.75,161.3,2019-12-28 07:31:23
151,carnarvon,ZA,27.8,14,18,5.0,-30.97,22.13,2019-12-28 07:31:24
152,travesia,HN,20.83,88,5,1.0,15.87,-87.9,2019-12-28 07:31:24
153,novoagansk,RU,-17.48,93,100,6.69,61.94,76.66,2019-12-28 07:31:25
154,ugoofaaru,MV,27.63,79,17,6.57,5.67,73.0,2019-12-28 07:31:25
155,shimoda,JP,9.97,50,75,2.1,34.7,138.93,2019-12-28 07:31:25
156,diego de almagro,CL,18.04,30,99,1.25,-26.39,-70.05,2019-12-28 07:31:26
157,bastogne,BE,0.36,86,73,2.1,50.0,5.72,2019-12-28 07:31:26
158,xinxiang,CN,9.17,43,53,3.33,35.3,113.88,2019-12-28 07:31:26
159,magdagachi,RU,-31.39,96,28,1.78,53.45,125.8,2019-12-28 07:31:26
160,ixtapa,MX,23.45,88,90,0.86,20.71,-105.21,2019-12-28 07:31:27
161,panaba,MX,18.33,97,28,1.03,21.28,-88.27,2019-12-28 07:31:27
162,sept-iles,CA,-7.0,92,75,2.6,50.2,-66.38,2019-12-28 07:26:58
163,shalinskoye,RU,-27.6,92,0,0.84,55.72,93.76,2019-12-28 07:31:27
164,new norfolk,AU,23.46,53,20,7.2,-42.78,147.06,2019-12-28 07:31:27
165,gerash,IR,15.0,58,0,2.1,27.67,54.14,2019-12-28 07:31:28
166,bredasdorp,ZA,21.06,56,7,9.8,-34.53,20.04,2019-12-28 07:31:28
167,dakar,SN,20.38,78,0,3.1,14.69,-17.45,2019-12-28 07:31:21
168,barrow,AR,21.91,93,67,3.64,-38.31,-60.23,2019-12-28 07:31:28
169,mar del plata,AR,12.32,43,0,7.79,-46.43,-67.52,2019-12-28 07:31:29
170,byron bay,AU,26.01,57,0,5.1,-28.65,153.62,2019-12-28 07:31:29
171,san patricio,PY,25.09,71,0,2.49,-26.98,-56.83,2019-12-28 07:31:29
172,provideniya,RU,-23.78,80,0,3.09,64.42,-173.23,2019-12-28 07:31:29
173,navahrudak,BY,-2.15,88,100,8.07,53.59,25.82,2019-12-28 07:31:30
174,yagoua,CM,25.86,11,43,3.87,10.34,15.23,2019-12-28 07:31:30
175,delijan,IR,5.32,66,78,1.6,33.99,50.69,2019-12-28 07:31:30
176,tefe,BR,23.23,99,100,0.73,-3.35,-64.71,2019-12-28 07:31:30
177,severo-kurilsk,RU,-1.51,98,100,16.19,50.68,156.12,2019-12-28 07:31:30
178,lavrentiya,RU,-24.14,89,0,3.64,65.58,-170.99,2019-12-28 07:31:31
179,san quintin,PH,26.36,84,52,1.62,17.54,120.52,2019-12-28 07:31:31
180,miyako,JP,10.39,53,75,2.1,33.63,130.94,2019-12-28 07:31:31
181,alkhazurovo,RU,4.0,93,90,4.0,43.06,45.65,2019-12-28 07:31:31
182,talnakh,RU,-22.0,83,75,11.0,69.49,88.39,2019-12-28 07:31:32
183,grande prairie,CA,-10.0,85,20,2.1,55.17,-118.79,2019-12-28 07:26:58
184,garanhuns,BR,18.31,93,29,3.07,-8.89,-36.49,2019-12-28 07:31:32
185,giyani,ZA,25.46,45,79,5.22,-23.32,30.73,2019-12-28 07:31:32
186,college,US,-35.77,65,34,2.17,64.86,-147.8,2019-12-28 07:31:32
187,maragogi,BR,26.26,69,12,4.67,-9.01,-35.22,2019-12-28 07:31:33
188,rayong,TH,29.16,65,75,3.1,12.68,101.28,2019-12-28 07:31:33
189,antofagasta,CL,18.0,88,75,3.6,-23.65,-70.4,2019-12-28 07:30:51
190,aklavik,CA,-34.0,73,5,1.5,68.22,-135.01,2019-12-28 07:31:34
191,saiha,IN,20.61,34,0,1.7,22.49,92.98,2019-12-28 07:31:34
192,patu,BR,22.71,78,3,4.41,-6.1,-37.64,2019-12-28 07:31:34
193,fochville,ZA,17.75,52,7,1.79,-26.49,27.49,2019-12-28 07:31:34
194,palmer,AU,31.86,31,0,6.2,-34.85,139.16,2019-12-28 07:31:35
195,ginda,IN,14.34,20,0,2.71,30.69,78.49,2019-12-28 07:31:35
196,nicoya,CR,22.49,78,48,1.5,10.15,-85.45,2019-12-28 07:30:02
197,pangnirtung,CA,-20.68,80,0,1.45,66.15,-65.72,2019-12-28 07:31:35
198,brazzaville,CD,24.79,83,75,1.7,-4.27,15.27,2019-12-28 07:31:36
199,la palma,CO,19.7,97,100,1.12,5.36,-74.39,2019-12-28 07:31:36
200,sao joao da barra,BR,23.31,88,0,2.27,-21.64,-41.05,2019-12-28 07:31:36
201,arman,RU,-10.42,64,100,7.73,59.7,150.17,2019-12-28 07:31:36
202,birjand,IR,13.0,16,0,2.1,32.86,59.22,2019-12-28 07:31:37
203,kangaatsiaq,GL,-10.22,78,53,3.33,68.31,-53.46,2019-12-28 07:31:37
204,taunggyi,MM,21.33,56,2,3.2,20.78,97.03,2019-12-28 07:31:37
205,mangrol,IN,20.13,20,0,1.35,25.33,76.51,2019-12-28 07:31:38
206,suoyarvi,RU,-9.15,91,0,3.07,62.08,32.35,2019-12-28 07:31:38
207,qovlar,AZ,10.0,61,20,7.2,40.95,45.73,2019-12-28 07:31:38
208,lokosovo,RU,-17.03,85,100,4.43,61.13,74.84,2019-12-28 07:31:38
209,nenjiang,CN,-26.94,94,0,1.98,49.17,125.23,2019-12-28 07:31:39
210,zhangye,CN,0.65,17,18,4.34,38.94,100.46,2019-12-28 07:31:39
211,port blair,IN,26.77,75,65,4.02,11.67,92.75,2019-12-28 07:27:55
212,kourou,GF,26.0,88,100,1.5,5.16,-52.64,2019-12-28 07:31:39
213,lerwick,GB,9.0,93,40,6.7,60.15,-1.15,2019-12-28 07:31:40
214,codrington,AU,26.17,44,0,5.1,-28.95,153.24,2019-12-28 07:31:40
215,yerbogachen,RU,-29.36,95,100,3.3,61.28,108.01,2019-12-28 07:31:40
216,cidreira,BR,23.01,88,2,9.85,-30.17,-50.22,2019-12-28 07:31:40
217,limbe,MW,26.0,65,75,3.6,-15.81,35.05,2019-12-28 07:31:40
218,srisailam,IN,25.35,58,51,3.05,16.07,78.87,2019-12-28 07:31:41
219,hailar,CN,-23.48,91,77,5.6,49.2,119.7,2019-12-28 07:27:25
220,sao felix do xingu,BR,22.26,99,100,0.47,-6.64,-51.99,2019-12-28 07:31:41
221,horizontina,BR,22.22,87,93,1.77,-27.63,-54.31,2019-12-28 07:31:41
222,doha,QA,21.93,64,0,1.5,25.29,51.53,2019-12-28 07:30:14
223,santiago,PH,24.3,91,19,0.91,16.69,121.54,2019-12-28 07:30:01
224,riviere-du-loup,CA,1.15,77,100,7.26,47.83,-69.53,2019-12-28 07:26:58
225,zhigansk,RU,-32.85,94,100,4.44,66.77,123.37,2019-12-28 07:31:42
226,viedma,AR,18.99,85,80,2.62,-40.81,-62.99,2019-12-28 07:31:42
227,hasaki,JP,8.56,39,20,6.7,35.73,140.83,2019-12-28 07:31:43
228,kamaishi,JP,0.0,79,40,5.7,39.28,141.86,2019-12-28 07:31:43
229,korcula,HR,6.0,45,40,3.1,42.96,17.14,2019-12-28 07:31:12
230,komsomolskiy,RU,-21.91,98,100,2.51,67.55,63.78,2019-12-28 07:31:43
231,klaksvik,FO,8.0,100,100,5.1,62.23,-6.59,2019-12-28 07:31:44
232,muros,ES,5.61,60,62,1.5,42.77,-9.06,2019-12-28 07:31:44
233,daura,NG,21.55,14,0,7.57,13.04,8.32,2019-12-28 07:31:44
234,warwick,US,4.86,87,1,5.7,41.7,-71.42,2019-12-28 07:31:44
235,vigrestad,NO,3.05,86,75,8.2,58.57,5.7,2019-12-28 07:31:45
236,touros,BR,23.0,88,40,2.1,-5.2,-35.46,2019-12-28 07:31:45
237,vila franca do campo,PT,19.0,88,75,10.3,37.72,-25.43,2019-12-28 07:31:45
238,la seyne-sur-mer,FR,3.02,86,10,1.5,43.1,5.88,2019-12-28 07:31:45
239,chettipalaiyam,IN,28.0,54,40,4.1,10.9,77.07,2019-12-28 07:31:46
240,upernavik,GL,-18.66,60,10,1.02,72.79,-56.15,2019-12-28 07:31:46
241,trelew,AR,17.21,31,20,7.85,-43.25,-65.31,2019-12-28 07:27:09
242,kongolo,CD,22.99,92,100,2.67,-5.39,27.0,2019-12-28 07:31:46
243,khatanga,RU,-35.2,98,55,2.45,71.98,102.47,2019-12-28 07:31:47
244,san rafael,AR,21.17,37,1,4.7,-34.61,-68.33,2019-12-28 07:31:47
245,tura,RU,-33.68,92,6,2.3,64.27,100.22,2019-12-28 07:31:47
246,clarence town,AU,30.73,35,0,7.7,-32.59,151.78,2019-12-28 07:31:47
247,kinsale,IE,9.55,93,75,5.7,51.71,-8.52,2019-12-28 07:31:47
248,lamar,US,-0.34,95,90,3.1,38.09,-102.62,2019-12-28 07:31:39
249,caravelas,BR,22.44,91,2,1.7,-17.73,-39.27,2019-12-28 07:31:48
250,paamiut,GL,-6.42,49,0,1.78,61.99,-49.67,2019-12-28 07:31:48
251,grand forks,US,-12.35,84,1,3.6,47.91,-97.06,2019-12-28 07:31:49
252,boa esperanca,BR,22.65,98,0,0.83,-1.91,-60.0,2019-12-28 07:31:49
253,yekaterinoslavka,RU,-17.62,85,100,6.19,54.34,72.46,2019-12-28 07:31:49
254,illapel,CL,11.36,74,0,0.29,-31.63,-71.17,2019-12-28 07:31:49
255,elliot lake,CA,-1.0,74,75,5.1,46.37,-82.65,2019-12-28 07:31:50
256,ocara,BR,23.88,83,73,2.83,-4.49,-38.6,2019-12-28 07:31:50
257,kulhudhuffushi,MV,27.74,80,0,5.44,6.62,73.07,2019-12-28 07:30:29
258,sao filipe,CV,22.7,62,0,4.01,14.9,-24.5,2019-12-28 07:31:50
259,maputo,MZ,24.29,57,75,6.2,-25.97,32.57,2019-12-28 07:31:51
260,qaqortoq,GL,-3.0,53,100,2.1,60.72,-46.03,2019-12-28 07:31:51
261,demba,CD,24.0,83,100,0.84,-5.47,22.27,2019-12-28 07:31:51
262,flinders,AU,26.4,54,0,3.6,-34.58,150.85,2019-12-28 07:31:51
263,fortuna,US,2.56,93,1,2.1,40.6,-124.16,2019-12-28 07:31:51
264,labuhan,ID,28.33,85,100,1.3,-2.54,115.51,2019-12-28 07:31:52
265,gasa,BT,-7.6,23,0,3.02,27.91,89.73,2019-12-28 07:31:52
266,vila velha,BR,27.91,74,40,6.2,-3.71,-38.6,2019-12-28 07:30:36
267,namibe,AO,23.18,86,100,3.16,-15.19,12.15,2019-12-28 07:31:52
268,chuy,UY,22.32,76,2,4.0,-33.69,-53.46,2019-12-28 07:27:06
269,palmares do sul,BR,22.79,85,0,5.49,-30.26,-50.51,2019-12-28 07:31:53
270,kavaratti,IN,28.81,71,25,3.91,10.57,72.64,2019-12-28 07:31:53
271,kavieng,PG,28.62,73,33,6.03,-2.57,150.8,2019-12-28 07:31:53
272,poya,NC,25.26,84,2,11.33,-21.35,165.16,2019-12-28 07:31:53
273,bilibino,RU,-29.33,91,0,1.08,68.06,166.44,2019-12-28 07:31:54
274,kapuskasing,CA,-5.0,85,5,3.1,49.42,-82.43,2019-12-28 07:31:54
275,goreloye,RU,-3.02,74,100,1.66,52.92,41.5,2019-12-28 07:31:54
276,nerchinskiy zavod,RU,-28.13,94,88,1.14,51.31,119.61,2019-12-28 07:31:55
277,ancud,CL,7.0,93,0,3.1,-41.87,-73.83,2019-12-28 07:31:55
278,wagar,US,16.62,76,92,0.45,31.44,-87.99,2019-12-28 07:31:55
279,makakilo city,US,23.71,100,90,2.1,21.35,-158.09,2019-12-28 07:31:55
280,rincon,PA,19.44,91,98,1.42,8.46,-82.28,2019-12-28 07:31:55
281,longyearbyen,NO,-7.0,79,75,4.1,78.22,15.63,2019-12-28 07:31:56
282,boguchany,RU,-33.1,96,0,1.17,58.38,97.46,2019-12-28 07:31:56
283,pisco,PE,20.0,88,75,0.12,-13.71,-76.2,2019-12-28 07:29:29
284,arlit,NE,22.46,15,67,4.01,18.74,7.39,2019-12-28 07:31:56
285,tigil,RU,-13.01,73,69,5.22,57.8,158.67,2019-12-28 07:31:57
286,abu zabad,SD,24.47,17,0,8.03,12.35,29.25,2019-12-28 07:31:57
287,matara,BI,20.06,85,87,1.66,-3.48,29.48,2019-12-28 07:31:57
288,karratha,AU,32.25,66,16,4.26,-20.74,116.85,2019-12-28 07:31:57
289,yerofey pavlovich,RU,-32.8,96,0,0.73,53.97,121.97,2019-12-28 07:31:58
290,williamsport,US,2.33,100,90,2.6,41.25,-77.0,2019-12-28 07:31:58
291,beira,ES,2.75,63,1,3.6,43.2,-8.36,2019-12-28 07:31:58
292,darnah,LY,15.02,65,98,6.58,32.77,22.64,2019-12-28 07:31:59
293,metu,ET,29.23,39,31,0.57,8.3,35.58,2019-12-28 07:31:59
294,qena,EG,10.0,53,0,2.07,26.16,32.72,2019-12-28 07:31:59
295,arraial do cabo,BR,24.01,88,0,6.18,-22.97,-42.02,2019-12-28 07:31:59
296,souillac,FR,5.17,93,8,4.1,45.6,-0.6,2019-12-28 07:31:59
297,nizhneudinsk,RU,-28.42,97,100,1.04,54.91,99.03,2019-12-28 07:32:00
298,novopetrovskoye,RU,-1.0,92,90,4.0,55.99,36.47,2019-12-28 07:32:00
299,birnin kebbi,NG,23.52,13,0,6.71,12.45,4.2,2019-12-28 07:32:00
300,nambucca heads,AU,25.67,57,0,7.7,-30.64,152.99,2019-12-28 07:32:01
301,grand gaube,MU,28.4,74,40,6.7,-20.01,57.66,2019-12-28 07:32:01
302,bonavista,CA,-6.11,85,100,0.89,48.65,-53.11,2019-12-28 07:32:01
303,hamilton,CA,2.92,83,90,3.1,43.26,-79.87,2019-12-28 07:27:12
304,torbay,CA,-6.81,85,75,2.6,47.66,-52.73,2019-12-28 07:32:01
305,soldotna,US,-11.34,84,90,4.1,60.48,-151.07,2019-12-28 07:32:02
306,bathurst,AU,31.67,16,80,1.3,-33.42,149.58,2019-12-28 07:32:02
307,aloleng,PH,27.94,73,0,2.31,16.13,119.78,2019-12-28 07:32:02
308,port macquarie,AU,26.27,54,0,8.2,-31.43,152.91,2019-12-28 07:32:02
309,edmundston,CA,-0.01,88,90,5.7,47.36,-68.33,2019-12-28 07:31:57
310,outjo,NA,26.0,50,98,3.1,-20.11,16.16,2019-12-28 07:32:03
311,tecoanapa,MX,25.0,94,20,1.14,16.99,-99.26,2019-12-28 07:32:03
312,san jeronimo,PE,10.34,94,100,1.5,-13.65,-73.37,2019-12-28 07:32:03
313,axim,GH,29.82,60,19,1.45,4.87,-2.24,2019-12-28 07:32:04
314,richards bay,ZA,21.61,73,100,5.88,-28.77,32.06,2019-12-28 07:32:04
315,kulevcha,RU,-3.73,74,88,1.96,52.24,42.64,2019-12-28 07:32:04
316,ubinskoye,RU,-22.5,89,0,3.89,55.31,79.68,2019-12-28 07:32:05
317,pasighat,IN,18.68,55,0,0.62,28.06,95.33,2019-12-28 07:32:05
318,magan,OM,25.0,47,0,2.6,24.42,56.58,2019-12-28 07:32:05
319,polunochnoye,RU,-11.18,91,100,3.66,60.87,60.43,2019-12-28 07:32:05
320,tabuk,PH,25.45,87,71,1.73,17.41,121.44,2019-12-28 07:32:06
321,kaitangata,NZ,11.11,68,100,3.58,-46.28,169.85,2019-12-28 07:32:06
322,the valley,AI,25.39,88,20,1.5,18.22,-63.06,2019-12-28 07:32:06
323,brae,GB,9.0,93,100,7.7,60.4,-1.35,2019-12-28 07:32:07
324,belyy yar,RU,-26.0,68,0,0.93,53.6,91.39,2019-12-28 07:32:07
325,borovoy,RU,-14.03,96,100,3.23,63.23,52.89,2019-12-28 07:32:07
326,yulara,AU,42.0,11,68,3.1,-25.24,130.99,2019-12-28 07:32:08
327,alta floresta,BR,21.77,98,98,1.56,-9.87,-56.08,2019-12-28 07:32:08
328,husavik,CA,-8.92,92,0,3.66,50.56,-96.99,2019-12-28 07:32:08
329,nagato,JP,10.06,49,20,1.0,34.35,131.14,2019-12-28 07:32:09
330,alyangula,AU,33.0,52,75,5.7,-13.85,136.42,2019-12-28 07:32:09
331,limulunga,ZM,26.96,62,96,2.34,-15.13,23.15,2019-12-28 07:32:09
332,ola,RU,-12.41,63,100,8.67,59.58,151.3,2019-12-28 07:32:09
333,saint-augustin,CA,2.48,87,90,3.1,45.63,-73.98,2019-12-28 07:32:09
334,tateyama,JP,6.97,56,75,3.6,36.66,137.31,2019-12-28 07:32:10
335,payo,ID,24.77,90,65,1.23,-3.75,103.64,2019-12-28 07:32:10
336,fairfield,US,4.82,51,1,0.26,38.25,-122.04,2019-12-28 07:32:10
337,broome,GB,6.86,93,75,3.1,52.47,1.45,2019-12-28 07:32:11
338,kieta,PG,28.46,66,2,1.18,-6.22,155.63,2019-12-28 07:32:11
339,bubaque,GW,25.38,49,0,5.55,11.28,-15.83,2019-12-28 07:32:11
340,margate,AU,23.56,53,20,7.2,-43.03,147.26,2019-12-28 07:32:11
341,fakel,RU,-9.69,92,97,3.84,57.63,53.03,2019-12-28 07:32:11
342,talakan,RU,-27.34,98,97,1.45,50.29,130.28,2019-12-28 07:32:12
343,padang,ID,27.05,75,85,1.23,-0.92,100.36,2019-12-28 07:28:05
344,shu,KZ,3.89,84,100,0.45,43.6,73.76,2019-12-28 07:32:12
345,alvand,IR,8.0,70,20,3.1,36.19,50.06,2019-12-28 07:32:12
346,madimba,CM,26.0,94,75,1.0,4.42,9.93,2019-12-28 07:32:13
347,larap,PH,27.65,81,0,8.35,14.3,122.65,2019-12-28 07:32:13
348,hearst,CA,-3.33,82,0,4.7,49.69,-83.67,2019-12-28 07:32:13
349,dickinson,US,-8.2,78,1,2.1,46.88,-102.79,2019-12-28 07:32:13
350,tete,MZ,32.0,59,40,5.1,-16.16,33.59,2019-12-28 07:32:14
351,partizansk,RU,-10.69,78,3,1.74,43.13,133.13,2019-12-28 07:32:14
352,bantou,CN,15.3,59,0,0.86,26.22,117.49,2019-12-28 07:32:14
353,poland,US,2.26,100,90,2.1,43.23,-75.06,2019-12-28 07:32:14
354,kouroussa,GN,24.64,21,0,1.1,10.65,-9.88,2019-12-28 07:32:15
355,yar-sale,RU,-19.95,92,90,7.33,66.83,70.83,2019-12-28 07:32:15
356,ekhabi,RU,-18.19,79,82,10.85,53.51,142.97,2019-12-28 07:32:15
357,west bay,CA,4.07,93,90,3.1,49.34,-123.21,2019-12-28 07:32:15
358,muisne,EC,23.99,88,99,2.32,0.61,-80.02,2019-12-28 07:32:16
359,matam,SN,17.0,33,0,1.0,15.66,-13.26,2019-12-28 07:32:16
360,arica,CL,17.92,59,94,1.0,-18.48,-70.32,2019-12-28 07:32:16
361,te anau,NZ,8.18,70,87,4.83,-45.41,167.72,2019-12-28 07:32:16
362,saint-georges,CA,0.77,100,100,4.47,46.12,-70.67,2019-12-28 07:29:42
363,krasnyy chikoy,RU,-23.49,95,100,2.94,50.36,108.75,2019-12-28 07:32:17
364,florence,US,12.56,100,1,0.75,34.2,-79.77,2019-12-28 07:32:17
365,adrar,DZ,5.0,52,88,5.1,27.87,-0.29,2019-12-28 07:32:18
366,daru,PG,26.29,85,100,1.12,-9.07,143.21,2019-12-28 07:32:18
367,pevek,RU,-28.11,97,0,4.12,69.7,170.27,2019-12-28 07:32:18
368,evensk,RU,-19.43,60,0,5.71,61.92,159.24,2019-12-28 07:32:18
369,sechura,PE,21.08,89,100,3.08,-5.56,-80.82,2019-12-28 07:32:19
370,caibarien,CU,21.0,94,5,2.6,22.52,-79.47,2019-12-28 07:32:19
371,haikou,CN,20.0,77,90,6.0,20.04,110.34,2019-12-28 07:32:19
372,rodrigues alves,BR,22.44,96,100,0.32,-7.74,-72.65,2019-12-28 07:32:19
373,batticaloa,LK,26.24,70,92,3.27,7.71,81.69,2019-12-28 07:32:20
374,nogliki,RU,-22.64,82,67,5.68,51.8,143.14,2019-12-28 07:32:20
375,bay roberts,CA,-6.81,85,75,2.6,47.58,-53.28,2019-12-28 07:32:20
376,port hardy,CA,6.0,87,75,7.7,50.7,-127.42,2019-12-28 07:32:20
377,gao,ML,22.88,13,0,6.47,16.28,-0.04,2019-12-28 07:32:21
378,dalvik,SE,-7.59,100,100,1.0,57.79,14.13,2019-12-28 07:32:21
379,alice springs,AU,41.0,12,41,5.7,-23.7,133.88,2019-12-28 07:32:21
380,la ronge,CA,-19.0,84,20,2.4,55.1,-105.3,2019-12-28 07:32:21
381,grenfell,AU,33.81,13,100,2.34,-33.9,148.16,2019-12-28 07:32:21
382,sobolevo,RU,-0.09,95,100,6.85,54.43,31.9,2019-12-28 07:32:22
383,yaan,NG,29.95,13,0,4.22,7.38,8.57,2019-12-28 07:32:22
384,camacha,PT,16.43,93,75,4.1,33.08,-16.33,2019-12-28 07:32:22
385,buerarema,BR,23.0,94,40,2.6,-14.96,-39.3,2019-12-28 07:32:23
386,sebinkarahisar,TR,-3.1,92,100,2.78,40.29,38.42,2019-12-28 07:32:23
387,guane,CU,24.89,77,74,6.06,22.2,-84.09,2019-12-28 07:32:23
388,flin flon,CA,-15.92,91,43,0.41,54.77,-101.88,2019-12-28 07:32:23
389,singaparna,ID,24.97,85,95,1.02,-7.35,108.11,2019-12-28 07:32:24
390,high level,CA,-19.0,91,1,1.5,58.52,-117.13,2019-12-28 07:32:24
391,san mateo del mar,MX,23.5,78,0,9.76,16.21,-94.98,2019-12-28 07:32:24
392,pemba,MZ,25.0,100,90,3.6,-12.97,40.52,2019-12-28 07:32:24
393,bandarbeyla,SO,26.3,72,78,8.24,9.49,50.81,2019-12-28 07:32:25
394,sibanicu,CU,20.0,100,0,2.1,21.23,-77.53,2019-12-28 07:32:25
395,george town,MY,31.82,62,20,4.6,5.42,100.33,2019-12-28 07:32:25
396,maniitsoq,GL,-8.97,55,0,1.39,65.42,-52.9,2019-12-28 07:32:25
397,hobyo,SO,31.82,47,1,7.46,5.35,48.53,2019-12-28 07:32:26
398,jacareacanga,BR,22.89,95,61,0.33,-6.22,-57.76,2019-12-28 07:32:26
399,vao,EE,-2.21,77,91,4.26,59.1,26.19,2019-12-28 07:32:26
400,praia da vitoria,PT,15.0,100,75,6.55,38.73,-27.07,2019-12-28 07:32:26
401,lisakovsk,KZ,-6.89,96,100,2.98,52.55,62.49,2019-12-28 07:32:26
402,qasigiannguit,GL,-14.0,60,100,1.0,68.82,-51.19,2019-12-28 07:32:27
403,vestmannaeyjar,IS,7.63,85,100,6.88,63.44,-20.27,2019-12-28 07:32:27
404,pingdingshan,CN,10.9,35,35,3.48,33.74,113.3,2019-12-28 07:32:27
405,marsh harbour,BS,23.37,80,49,8.91,26.54,-77.06,2019-12-28 07:32:28
406,okhotsk,RU,-11.08,95,100,4.23,59.36,143.24,2019-12-28 07:32:28
407,casablanca,MA,9.18,71,0,3.1,33.6,-7.62,2019-12-28 07:30:05
408,vardo,US,4.96,76,75,2.6,39.62,-77.74,2019-12-28 07:32:28
409,wellington,NZ,16.32,51,71,7.2,-41.29,174.78,2019-12-28 07:30:56
410,san cristobal,HN,14.33,96,0,0.67,14.68,-86.92,2019-12-28 07:32:29
411,smithers,CA,-1.0,80,90,4.1,54.78,-127.17,2019-12-28 07:32:29
412,austin,US,15.39,87,90,2.6,30.27,-97.74,2019-12-28 07:30:55
413,derac,HT,18.05,90,10,0.98,19.65,-71.82,2019-12-28 07:32:29
414,greeneville,US,6.8,87,20,1.27,36.16,-82.83,2019-12-28 07:32:30
415,kautokeino,NO,-9.0,79,100,12.16,69.01,23.04,2019-12-28 07:32:30
416,nhulunbuy,AU,31.0,66,40,4.6,-12.18,136.78,2019-12-28 07:32:30
417,kentwood,US,0.85,74,90,3.1,42.87,-85.64,2019-12-28 07:32:30
418,vilhena,BR,20.87,94,90,0.66,-12.74,-60.15,2019-12-28 07:28:45
419,riverton,US,-11.24,92,90,0.83,43.02,-108.38,2019-12-28 07:32:31
420,great bend,US,3.73,100,90,1.5,38.36,-98.78,2019-12-28 07:32:31
421,fairbanks,US,-34.87,65,37,2.14,64.84,-147.72,2019-12-28 07:30:38
422,shangrao,CN,11.36,69,90,2.14,28.45,117.97,2019-12-28 07:32:32
423,ponta do sol,BR,17.96,96,37,1.02,-20.63,-46.0,2019-12-28 07:32:32
424,miquelon,PM,1.07,97,100,9.02,47.1,-56.38,2019-12-28 07:32:32
425,aripuana,BR,22.06,97,99,0.79,-9.17,-60.63,2019-12-28 07:32:33
426,gravdal,NO,3.49,86,75,10.8,59.79,5.78,2019-12-28 07:32:33
427,weihe,CN,2.26,59,67,1.86,32.99,105.33,2019-12-28 07:32:33
428,seymchan,RU,-33.35,99,100,1.09,62.93,152.39,2019-12-28 07:32:33
429,tiznit,MA,15.21,23,0,2.72,29.7,-9.73,2019-12-28 07:32:33
430,bull savanna,JM,20.17,90,18,1.42,17.89,-77.59,2019-12-28 07:32:34
431,kamenka,MD,-0.56,90,100,5.32,48.03,28.7,2019-12-28 07:32:34
432,sigli,ID,27.34,79,8,4.27,5.38,95.96,2019-12-28 07:32:34
433,tucumcari,US,2.21,100,90,3.1,35.17,-103.73,2019-12-28 07:32:35
434,banda aceh,ID,29.36,63,35,3.91,5.56,95.32,2019-12-28 07:32:35
435,plettenberg bay,ZA,19.97,65,0,6.76,-34.05,23.37,2019-12-28 07:32:35
436,puerto escondido,MX,19.4,86,3,1.09,15.86,-97.07,2019-12-28 07:32:35
437,portland,US,1.26,93,1,1.5,43.66,-70.25,2019-12-28 07:32:36
438,bela,PK,24.58,18,0,2.23,26.23,66.31,2019-12-28 07:32:36
439,shima,JP,9.46,53,20,9.3,34.34,136.82,2019-12-28 07:32:36
440,southampton,GB,8.59,93,75,1.0,50.9,-1.4,2019-12-28 07:32:36
441,acari,BR,20.9,84,0,5.84,-6.44,-36.64,2019-12-28 07:32:37
442,san luis,AR,28.06,52,11,3.39,-33.3,-66.34,2019-12-28 07:29:14
443,ulfborg,DK,-1.72,92,100,2.1,56.27,8.32,2019-12-28 07:32:37
444,rawson,AR,16.13,56,0,5.37,-43.3,-65.11,2019-12-28 07:32:37
445,isiro,CD,30.72,20,100,1.96,2.77,27.62,2019-12-28 07:32:37
446,barahan,PH,23.5,81,13,2.11,13.01,120.76,2019-12-28 07:32:38
447,mayumba,GA,26.56,79,6,1.13,-3.44,10.65,2019-12-28 07:32:38
448,sembakung,ID,28.74,73,33,3.09,3.82,117.25,2019-12-28 07:32:38
449,iisalmi,FI,-14.0,84,0,1.5,63.56,27.19,2019-12-28 07:32:39
450,derzhavinsk,KZ,-3.56,92,100,2.6,51.1,66.31,2019-12-28 07:32:39
451,scarborough,GB,7.37,100,100,3.6,54.28,-0.41,2019-12-28 07:32:39
452,baghdad,IQ,13.0,66,18,2.1,33.3,44.38,2019-12-28 07:32:39
453,adilcevaz,TR,1.0,86,75,1.0,38.8,42.73,2019-12-28 07:32:40
454,swift current,CA,-9.0,85,1,7.2,50.29,-107.8,2019-12-28 07:31:00
455,lompoc,US,4.8,59,1,4.84,34.64,-120.46,2019-12-28 07:31:14
456,nautla,MX,16.98,93,0,0.65,20.22,-96.78,2019-12-28 07:32:41
457,troitsk,RU,-9.06,94,100,3.34,54.08,61.55,2019-12-28 07:32:41
458,ridgetown,CA,2.02,80,90,4.1,42.44,-81.88,2019-12-28 07:32:41
459,obo,CF,30.37,12,64,3.53,5.39,26.49,2019-12-28 07:32:42
460,handlova,SK,-0.02,64,75,2.1,48.73,18.76,2019-12-28 07:32:42
461,pulaski,US,6.67,100,1,0.49,37.05,-80.78,2019-12-28 07:32:42
462,lee,US,2.15,74,90,3.6,45.36,-68.29,2019-12-28 07:32:43
463,manzhouli,CN,-25.44,94,100,3.51,49.6,117.43,2019-12-28 07:32:43
464,acapulco,MX,25.0,94,20,1.26,16.86,-99.88,2019-12-28 07:32:43
465,coihaique,CL,11.0,50,22,4.1,-45.58,-72.07,2019-12-28 07:32:43
466,guadalupe y calvo,MX,4.58,98,100,3.72,26.09,-106.96,2019-12-28 07:32:44
467,graz,AT,-0.02,64,40,6.2,47.07,15.44,2019-12-28 07:32:44
468,marsaxlokk,MT,12.95,87,20,1.5,35.84,14.54,2019-12-28 07:32:44
469,karcsa,HU,1.88,74,75,4.0,48.31,21.79,2019-12-28 07:32:44
470,boyolangu,ID,30.89,61,70,1.56,-8.09,111.9,2019-12-28 07:32:44
471,melfi,IT,6.0,56,40,1.5,41.0,15.66,2019-12-28 07:32:45
472,lasa,CY,13.34,51,40,7.7,34.92,32.53,2019-12-28 07:32:45
473,port augusta,AU,41.67,13,57,0.89,-32.49,137.76,2019-12-28 07:32:45
474,shache,CN,2.22,95,0,0.96,38.42,77.24,2019-12-28 07:32:46
475,noumea,NC,25.35,88,90,5.7,-22.28,166.46,2019-12-28 07:30:06
476,san felipe,CL,12.03,45,0,0.52,-32.75,-70.73,2019-12-28 07:32:46
477,kihei,US,21.43,83,20,4.6,20.76,-156.45,2019-12-28 07:32:47
478,aswan,EG,12.0,30,0,2.6,24.09,32.9,2019-12-28 07:31:18
479,kalat,PK,12.97,9,40,3.75,29.03,66.58,2019-12-28 07:32:47
480,ust-tarka,RU,-20.75,86,89,4.86,55.56,75.71,2019-12-28 07:32:47
481,algeciras,ES,15.0,87,75,8.7,36.13,-5.45,2019-12-28 07:32:48
482,paramonga,PE,19.51,93,100,4.41,-10.68,-77.82,2019-12-28 07:32:48
483,la asuncion,AR,17.84,80,59,3.24,-26.05,-65.39,2019-12-28 07:32:48
484,jiexiu,CN,3.66,25,0,0.88,37.02,111.92,2019-12-28 07:32:48
485,sioux lookout,CA,-7.0,85,5,4.6,50.1,-91.92,2019-12-28 07:32:48
486,rongcheng,CN,2.78,67,0,6.31,37.16,122.42,2019-12-28 07:32:49
487,jiayuguan,CN,-1.34,34,100,3.37,39.77,98.29,2019-12-28 07:31:30
488,raychikhinsk,RU,-28.74,96,68,2.77,49.8,129.4,2019-12-28 07:32:49
489,faanui,PF,26.75,74,45,6.94,-16.48,-151.75,2019-12-28 07:32:49
490,merritt island,US,20.99,83,90,3.1,28.54,-80.67,2019-12-28 07:32:50
491,shangqiu,CN,10.0,53,18,3.84,34.42,115.65,2019-12-28 07:32:50
492,emerald,AU,31.21,40,40,6.7,-23.53,148.16,2019-12-28 07:31:22
493,skjervoy,NO,0.88,53,100,7.01,70.03,20.97,2019-12-28 07:32:51
494,beloha,MG,36.17,30,0,6.05,-25.17,45.06,2019-12-28 07:32:51
495,chapais,CA,-4.0,85,90,3.6,49.78,-74.86,2019-12-28 07:32:52
496,kenai,US,-11.36,85,90,2.6,60.55,-151.26,2019-12-28 07:32:52
497,butka,RU,-12.64,93,100,3.1,56.72,63.78,2019-12-28 07:32:52
498,atar,MR,21.16,13,0,5.24,20.52,-13.05,2019-12-28 07:32:52
499,simpsonville,US,7.32,93,75,1.29,34.74,-82.25,2019-12-28 07:32:53
500,copiapo,CL,15.0,82,100,1.5,-27.37,-70.33,2019-12-28 07:32:53
501,ostrovnoy,RU,-9.94,86,100,10.93,68.05,39.51,2019-12-28 07:32:53
502,fare,PF,27.12,73,57,6.95,-16.7,-151.02,2019-12-28 07:32:54
503,honiara,SB,30.0,70,75,1.5,-9.43,159.96,2019-12-28 07:32:54
504,henties bay,NA,17.22,88,100,2.24,-22.12,14.28,2019-12-28 07:32:54
505,huarmey,PE,18.22,90,62,0.69,-10.07,-78.15,2019-12-28 07:32:54
506,sola,TZ,25.47,61,98,3.61,-3.17,33.8,2019-12-28 07:32:55
507,debre sina,ET,24.13,54,99,4.22,9.85,39.76,2019-12-28 07:32:55
508,oktyabrskiy,RU,-1.97,92,90,3.0,55.61,37.97,2019-12-28 07:32:55
509,morgan city,US,18.87,100,90,2.6,29.7,-91.21,2019-12-28 07:32:56
510,palomares,ES,-0.04,100,90,1.0,40.39,-5.74,2019-12-28 07:32:56
511,bongaree,AU,25.55,57,75,4.6,-27.08,153.16,2019-12-28 07:32:57
512,santiago de chuco,PE,7.59,92,72,1.65,-8.15,-78.17,2019-12-28 07:32:57
513,karachev,RU,-1.0,92,90,3.0,53.12,35.0,2019-12-28 07:32:57
514,half moon bay,US,5.38,86,1,1.24,37.46,-122.43,2019-12-28 07:32:58
515,tuatapere,NZ,11.67,72,100,7.6,-46.13,167.69,2019-12-28 07:32:58
516,glendive,US,-10.65,92,1,3.6,47.11,-104.71,2019-12-28 07:29:45
517,natal,BR,24.26,88,40,2.1,-5.81,-35.21,2019-12-28 07:32:59
518,vanimo,PG,28.08,76,83,6.02,-2.67,141.3,2019-12-28 07:33:00
519,roald,NO,6.96,65,75,6.2,62.58,6.12,2019-12-28 07:33:00
520,comodoro rivadavia,AR,14.0,44,0,6.2,-45.87,-67.48,2019-12-28 07:33:00
521,seoul,KR,5.4,45,90,1.25,37.57,126.98,2019-12-28 07:30:14
522,nemuro,JP,-7.0,57,20,1.0,43.32,145.57,2019-12-28 07:33:01
523,cortez,US,-2.62,86,90,3.1,37.35,-108.58,2019-12-28 07:33:01
524,roela,EE,-2.2,76,99,4.41,59.17,26.59,2019-12-28 07:33:01
525,hambantota,LK,31.0,70,20,6.2,6.12,81.12,2019-12-28 07:33:01
526,doka,SD,29.51,27,8,4.25,13.52,35.76,2019-12-28 07:33:02
527,wageningen,NL,-1.03,92,100,1.5,51.98,5.66,2019-12-28 07:33:02
528,monte gordo,ES,11.22,81,36,3.6,37.18,-7.45,2019-12-28 07:33:02
529,grand-lahou,CI,27.88,75,0,2.52,5.24,-5.0,2019-12-28 07:33:03
530,pimentel,BR,23.0,98,97,0.88,-3.7,-45.5,2019-12-28 07:33:03
531,fort wellington,GY,26.86,84,99,6.89,6.4,-57.6,2019-12-28 07:33:03
532,mataram,ID,28.2,80,56,0.21,-5.32,105.06,2019-12-28 07:33:03
533,kodinar,IN,27.86,17,0,5.27,20.79,70.7,2019-12-28 07:33:04
534,lagunas,PE,22.52,99,83,0.87,-5.23,-75.68,2019-12-28 07:33:04
535,pereira barreto,BR,21.39,87,100,2.79,-20.64,-51.11,2019-12-28 07:29:02
536,kloulklubed,PW,30.0,66,75,6.2,7.04,134.26,2019-12-28 07:33:04
537,kabare,RW,17.81,72,100,1.85,-1.65,29.38,2019-12-28 07:33:05
538,aksehir,TR,1.63,75,100,1.71,38.36,31.42,2019-12-28 07:33:05
539,colares,PT,11.7,76,0,2.6,38.8,-9.45,2019-12-28 07:33:05
540,naze,NG,19.0,88,57,2.69,5.43,7.07,2019-12-28 07:33:06
541,hammond,US,18.9,93,90,2.1,30.5,-90.46,2019-12-28 07:33:06
542,sangar,RU,-39.6,98,34,1.36,63.92,127.47,2019-12-28 07:33:06
543,najran,SA,20.0,30,41,2.1,17.54,44.22,2019-12-28 07:33:06
544,novy bor,CZ,0.08,100,75,3.6,50.76,14.56,2019-12-28 07:33:06
545,cherlak,RU,-19.51,85,95,6.21,54.15,74.8,2019-12-28 07:33:07
546,atambua,ID,27.85,77,100,3.11,-9.11,124.89,2019-12-28 07:33:07
547,bongaigaon,IN,22.73,39,0,1.51,26.48,90.56,2019-12-28 07:33:07
548,bambous virieux,MU,28.3,74,40,6.7,-20.34,57.76,2019-12-28 07:33:08
549,semirom,IR,1.69,64,0,7.7,31.41,51.57,2019-12-28 07:33:08
550,glace bay,CA,0.33,93,90,5.7,46.2,-59.96,2019-12-28 07:33:08
551,shakawe,BW,33.36,35,99,2.97,-18.36,21.84,2019-12-28 07:33:09
552,fairview,CA,-9.0,78,5,2.6,56.07,-118.38,2019-12-28 07:33:09
553,wuwei,CN,-1.93,22,0,1.97,37.93,102.64,2019-12-28 07:33:10
554,ahipara,NZ,17.22,77,0,7.35,-35.17,173.16,2019-12-28 07:33:10
555,vorotynets,RU,-8.37,92,98,3.61,56.06,45.86,2019-12-28 07:33:10
556,sayyan,YE,18.9,20,12,1.08,15.17,44.32,2019-12-28 07:33:11
557,jawhar,IN,31.21,29,0,2.46,19.91,73.23,2019-12-28 07:33:11
558,puerto santander,VE,23.2,98,100,0.95,8.35,-72.41,2019-12-28 07:33:11
559,sao miguel do araguaia,BR,22.41,95,100,1.11,-13.28,-50.16,2019-12-28 07:33:12
560,sisimiut,GL,-16.54,54,0,1.56,66.94,-53.67,2019-12-28 07:33:12
561,pontes e lacerda,BR,21.9,95,58,0.72,-15.23,-59.33,2019-12-28 07:33:12
562,penhold,CA,-9.92,77,75,1.0,52.13,-113.87,2019-12-28 07:33:12
563,fuyang,CN,10.6,47,92,2.65,32.89,115.81,2019-12-28 07:33:12
564,jalu,LY,17.78,52,2,5.64,29.03,21.55,2019-12-28 07:33:13
565,buala,SB,26.59,80,4,2.33,-8.15,159.59,2019-12-28 07:33:13
566,sosnovo-ozerskoye,RU,-23.78,89,100,0.76,52.53,111.54,2019-12-28 07:33:13
567,notse,TG,31.23,49,0,0.5,6.95,1.17,2019-12-28 07:33:13
568,broken hill,AU,33.0,26,75,5.7,-31.97,141.45,2019-12-28 07:33:14
569,solkan,IT,0.53,70,0,1.0,45.97,13.65,2019-12-28 07:33:15
570,misratah,LY,16.69,72,0,10.37,32.38,15.09,2019-12-28 07:33:15
571,sao jose da coroa grande,BR,26.26,69,12,4.67,-8.9,-35.15,2019-12-28 07:33:15
572,nyrob,RU,-7.82,89,100,4.41,60.74,56.73,2019-12-28 07:33:15
573,hirara,JP,20.51,68,75,4.6,24.8,125.28,2019-12-28 07:33:15
